time,pos_x,pos_y,pos_z,vel_x,vel_y,vel_z,att_phi,att_theta,att_psi,rate_p,rate_q,rate_r,cmd_thrust,cmd_roll,cmd_pitch,cmd_yaw
2.198250,-0.001783,-0.000047,-0.034797,-0.005645,-0.000031,0.037326,0.000000,0.000732,0.000488,-0.000167,0.234080,-0.000079,0,0,0,0
2.208020,-0.001792,-0.000047,-0.034797,-0.005645,-0.000031,0.037326,0.000000,0.000732,0.000488,-0.000167,0.234080,-0.000079,0,0,0,0
2.217790,-0.001800,-0.000047,-0.034797,-0.005645,-0.000031,0.037326,0.000000,0.000732,0.000488,-0.000167,0.234080,-0.000079,0,0,0,0
2.227560,-0.001808,-0.000047,-0.034797,-0.005645,-0.000031,0.037326,0.000000,0.000732,0.000488,-0.000167,0.234080,-0.000079,0,0,0,0
2.237330,-0.001817,-0.000048,-0.034797,-0.005645,-0.000031,0.037326,0.000000,0.000732,0.000488,-0.000167,0.234080,-0.000079,0,0,0,0
2.247100,-0.001825,-0.000048,-0.034797,-0.005645,-0.000031,0.037326,0.000000,0.000732,0.000488,-0.000167,0.234080,-0.000079,0,0,0,0
2.256870,-0.001833,-0.000048,-0.034797,-0.005645,-0.000031,0.037326,0.000000,0.000732,0.000488,-0.000167,0.234080,-0.000079,0,0,0,0
2.266640,-0.001842,-0.000048,-0.034797,-0.005645,-0.000031,0.037326,0.000000,0.000732,0.000488,-0.000167,0.234080,-0.000079,0,0,0,0
2.276410,-0.001850,-0.000048,-0.034797,-0.005645,-0.000031,0.037326,0.000000,0.000732,0.000488,-0.000167,0.234080,-0.000079,0,0,0,0
2.286180,-0.001859,-0.000049,-0.034797,-0.005645,-0.000031,0.037326,0.000000,0.000732,0.000488,-0.000167,0.234080,-0.000079,0,0,0,0
2.295950,-0.001867,-0.000049,-0.034797,-0.005645,-0.000031,0.037326,0.000000,0.000732,0.000488,-0.000167,0.234080,-0.000079,0,0,0,0
2.305720,-0.001875,-0.000049,-0.034797,-0.005645,-0.000031,0.037326,0.000000,0.000732,0.000488,-0.000167,0.234080,-0.000079,0,0,0,0
2.315490,-0.001884,-0.000049,-0.034797,-0.005645,-0.000031,0.037326,0.000000,0.000732,0.000488,-0.000167,0.234080,-0.000079,0,0,0,0
2.325260,-0.001892,-0.000050,-0.034797,-0.005645,-0.000031,0.037326,0.000000,0.000732,0.000488,-0.000167,0.234080,-0.000079,0,0,0,0
2.335030,-0.001900,-0.000050,-0.034797,-0.005645,-0.000031,0.037326,0.000000,0.000732,0.000488,-0.000167,0.234080,-0.000079,0,0,0,0
2.344800,-0.001909,-0.000050,-0.034797,-0.005645,-0.000031,0.037326,0.000000,0.000732,0.000488,-0.000167,0.234080,-0.000079,0,0,0,0
2.354570,-0.001917,-0.000050,-0.034797,-0.005645,-0.000031,0.037326,0.000000,0.000732,0.000488,-0.000167,0.234080,-0.000079,0,0,0,0
2.364340,-0.001925,-0.000050,-0.034797,-0.005645,-0.000031,0.037326,0.000000,0.000732,0.000488,-0.000167,0.234080,-0.000079,0,0,0,0
2.374110,-0.001934,-0.000051,-0.034797,-0.005645,-0.000031,0.037326,0.000000,0.000732,0.000488,-0.000167,0.234080,-0.000079,0,0,0,0
2.383880,-0.001942,-0.000051,-0.034797,-0.005645,-0.000031,0.037326,0.000000,0.000732,0.000488,-0.000167,0.234080,-0.000079,0,0,0,0
2.393650,-0.001951,-0.000051,-0.034797,-0.005645,-0.000031,0.037326,0.000000,0.000732,0.000488,-0.000167,0.234080,-0.000079,0,0,0,0
2.403420,-0.001959,-0.000051,-0.034797,-0.005645,-0.000031,0.037326,0.000000,0.000732,0.000488,-0.000167,0.234080,-0.000079,0,0,0,0
2.413190,-0.001967,-0.000052,-0.034797,-0.005645,-0.000031,0.037326,0.000000,0.000732,0.000488,-0.000167,0.234080,-0.000079,0,0,0,0
2.422960,-0.001976,-0.000052,-0.034797,-0.005645,-0.000031,0.037326,0.000000,0.000732,0.000488,-0.000167,0.234080,-0.000079,0,0,0,0
2.432730,-0.001984,-0.000052,-0.034797,-0.005645,-0.000031,0.037326,0.000000,0.000732,0.000488,-0.000167,0.234080,-0.000079,0,0,0,0
2.442500,-0.001992,-0.000052,-0.034797,-0.005645,-0.000031,0.037326,0.000000,0.000732,0.000488,-0.000167,0.234080,-0.000079,0,0,0,0
2.452270,-0.002001,-0.000052,-0.034797,-0.005645,-0.000031,0.037326,0.000000,0.000732,0.000488,-0.000167,0.234080,-0.000079,0,0,0,0
2.462040,-0.002009,-0.000053,-0.034797,-0.005645,-0.000031,0.037326,0.000000,0.000732,0.000488,-0.000167,0.234080,-0.000079,0,0,0,0
2.471810,-0.002018,-0.000053,-0.034797,-0.005645,-0.000031,0.037326,0.000000,0.000732,0.000488,-0.000167,0.234080,-0.000079,0,0,0,0
2.481580,-0.002026,-0.000053,-0.034797,-0.005645,-0.000031,0.037326,0.000000,0.000732,0.000488,-0.000167,0.234080,-0.000079,0,0,0,0
2.491350,-0.002034,-0.000053,-0.034797,-0.005645,-0.000031,0.037326,0.000000,0.000732,0.000488,-0.000167,0.234080,-0.000079,0,0,0,0
2.501120,-0.002043,-0.000054,-0.034797,-0.005645,-0.000031,0.037326,0.000000,0.000732,0.000488,-0.000167,0.234080,-0.000079,0,0,0,0
2.510890,-0.002051,-0.000054,-0.034797,-0.005645,-0.000031,0.037326,0.000000,0.000732,0.000488,-0.000167,0.234080,-0.000079,0,0,0,0
2.520660,-0.002059,-0.000054,-0.034797,-0.005645,-0.000031,0.037326,0.000000,0.000732,0.000488,-0.000167,0.234080,-0.000079,0,0,0,0
2.530430,-0.002068,-0.000054,-0.034797,-0.005645,-0.000031,0.037326,0.000000,0.000732,0.000488,-0.000167,0.234080,-0.000079,0,0,0,0
2.540200,-0.002076,-0.000054,-0.034797,-0.005645,-0.000031,0.037326,0.000000,0.000732,0.000488,-0.000167,0.234080,-0.000079,0,0,0,0
2.549970,-0.002085,-0.000055,-0.034797,-0.005645,-0.000031,0.037326,0.000000,0.000732,0.000488,-0.000167,0.234080,-0.000079,0,0,0,0
2.559740,-0.002093,-0.000055,-0.034797,-0.005645,-0.000031,0.037326,0.000000,0.000732,0.000488,-0.000167,0.234080,-0.000079,0,0,0,0
2.569510,-0.002101,-0.000055,-0.034797,-0.005645,-0.000031,0.037326,0.000000,0.000732,0.000488,-0.000167,0.234080,-0.000079,0,0,0,0
2.579280,-0.002110,-0.000055,-0.034797,-0.005645,-0.000031,0.037326,0.000000,0.000732,0.000488,-0.000167,0.234080,-0.000079,0,0,0,0
2.589050,-0.002118,-0.000056,-0.034797,-0.005645,-0.000031,0.037326,0.000000,0.000732,0.000488,-0.000167,0.234080,-0.000079,0,0,0,0
2.598820,-0.002126,-0.000056,-0.034797,-0.005645,-0.000031,0.037326,0.000000,0.000732,0.000488,-0.000167,0.234080,-0.000079,0,0,0,0
2.608590,-0.002135,-0.000056,-0.034797,-0.005645,-0.000031,0.037326,0.000000,0.000732,0.000488,-0.000167,0.234080,-0.000079,0,0,0,0
2.618360,-0.002143,-0.000056,-0.034797,-0.005645,-0.000031,0.037326,0.000000,0.000732,0.000488,-0.000167,0.234080,-0.000079,0,0,0,0
2.628130,-0.002152,-0.000056,-0.034797,-0.005645,-0.000031,0.037326,0.000000,0.000732,0.000488,-0.000167,0.234080,-0.000079,0,0,0,0
2.637900,-0.002160,-0.000057,-0.034797,-0.005645,-0.000031,0.037326,0.000000,0.000732,0.000488,-0.000167,0.234080,-0.000079,0,0,0,0
2.647670,-0.002168,-0.000057,-0.034797,-0.005645,-0.000031,0.037326,0.000000,0.000732,0.000488,-0.000167,0.234080,-0.000079,0,0,0,0
2.657440,-0.002177,-0.000057,-0.034797,-0.005645,-0.000031,0.037326,0.000000,0.000732,0.000488,-0.000167,0.234080,-0.000079,0,0,0,0
2.667210,-0.002185,-0.000057,-0.034797,-0.005645,-0.000031,0.037326,0.000000,0.000732,0.000488,-0.000167,0.234080,-0.000079,0,0,0,0
2.676980,-0.002193,-0.000058,-0.034797,-0.005645,-0.000031,0.037326,0.000000,0.000732,0.000488,-0.000167,0.234080,-0.000079,0,0,0,0
2.686750,-0.002202,-0.000058,-0.034797,-0.005645,-0.000031,0.037326,0.000000,0.000732,0.000488,-0.000167,0.234080,-0.000079,0,0,0,0
2.696520,-0.002210,-0.000058,-0.034797,-0.005645,-0.000031,0.037326,0.000000,0.000732,0.000488,-0.000167,0.234080,-0.000079,0,0,0,0
2.706290,-0.002219,-0.000058,-0.034797,-0.005645,-0.000031,0.037326,0.000000,0.000732,0.000488,-0.000167,0.234080,-0.000079,0,0,0,0
2.716060,-0.002227,-0.000058,-0.034797,-0.005645,-0.000031,0.037326,0.000000,0.000732,0.000488,-0.000167,0.234080,-0.000079,0,0,0,0
2.725830,-0.002235,-0.000059,-0.034797,-0.005645,-0.000031,0.037326,0.000000,0.000732,0.000488,-0.000167,0.234080,-0.000079,0,0,0,0
2.735600,-0.002244,-0.000059,-0.034797,-0.005645,-0.000031,0.037326,0.000000,0.000732,0.000488,-0.000167,0.234080,-0.000079,0,0,0,0
2.745370,-0.002252,-0.000059,-0.034797,-0.005645,-0.000031,0.037326,0.000000,0.000732,0.000488,-0.000167,0.234080,-0.000079,0,0,0,0
2.755140,-0.002260,-0.000059,-0.034797,-0.005645,-0.000031,0.037326,0.000000,0.000732,0.000488,-0.000167,0.234080,-0.000079,0,0,0,0
2.764910,-0.002269,-0.000060,-0.034797,-0.005645,-0.000031,0.037326,0.000000,0.000732,0.000488,-0.000167,0.234080,-0.000079,0,0,0,0
2.774680,-0.002277,-0.000060,-0.034797,-0.005645,-0.000031,0.037326,0.000000,0.000732,0.000488,-0.000167,0.234080,-0.000079,0,0,0,0
2.784450,-0.002286,-0.000060,-0.034797,-0.005645,-0.000031,0.037326,0.000000,0.000732,0.000488,-0.000167,0.234080,-0.000079,0,0,0,0
2.794220,-0.002294,-0.000060,-0.034797,-0.005645,-0.000031,0.037326,0.000000,0.000732,0.000488,-0.000167,0.234080,-0.000079,0,0,0,0
2.803990,-0.002302,-0.000061,-0.034797,-0.005645,-0.000031,0.037326,0.000000,0.000732,0.000488,-0.000167,0.234080,-0.000079,0,0,0,0
2.813760,-0.002311,-0.000061,-0.034797,-0.005645,-0.000031,0.037326,0.000000,0.000732,0.000488,-0.000167,0.234080,-0.000079,0,0,0,0
2.823530,-0.002319,-0.000061,-0.034797,-0.005645,-0.000031,0.037326,0.000000,0.000732,0.000488,-0.000167,0.234080,-0.000079,0,0,0,0
2.833300,-0.002327,-0.000061,-0.034797,-0.005645,-0.000031,0.037326,0.000000,0.000732,0.000488,-0.000167,0.234080,-0.000079,0,0,0,0
2.843070,-0.002336,-0.000061,-0.034797,-0.005645,-0.000031,0.037326,0.000000,0.000732,0.000488,-0.000167,0.234080,-0.000079,0,0,0,0
2.852840,-0.002344,-0.000062,-0.034797,-0.005645,-0.000031,0.037326,0.000000,0.000732,0.000488,-0.000167,0.234080,-0.000079,0,0,0,0
2.862610,-0.002353,-0.000062,-0.034797,-0.005645,-0.000031,0.037326,0.000000,0.000732,0.000488,-0.000167,0.234080,-0.000079,0,0,0,0
2.872380,-0.002361,-0.000062,-0.034797,-0.005645,-0.000031,0.037326,0.000000,0.000732,0.000488,-0.000167,0.234080,-0.000079,0,0,0,0
2.882150,-0.002369,-0.000062,-0.034797,-0.005645,-0.000031,0.037326,0.000000,0.000732,0.000488,-0.000167,0.234080,-0.000079,0,0,0,0
2.891920,-0.002378,-0.000063,-0.034797,-0.005645,-0.000031,0.037326,0.000000,0.000732,0.000488,-0.000167,0.234080,-0.000079,0,0,0,0
2.901690,-0.002386,-0.000063,-0.034797,-0.005645,-0.000031,0.037326,0.000000,0.000732,0.000488,-0.000167,0.234080,-0.000079,0,0,0,0
2.911460,-0.002394,-0.000063,-0.034797,-0.005645,-0.000031,0.037326,0.000000,0.000732,0.000488,-0.000167,0.234080,-0.000079,0,0,0,0
2.921230,-0.002403,-0.000063,-0.034797,-0.005645,-0.000031,0.037326,0.000000,0.000732,0.000488,-0.000167,0.234080,-0.000079,0,0,0,0
2.931000,-0.002411,-0.000063,-0.034797,-0.005645,-0.000031,0.037326,0.000000,0.000732,0.000488,-0.000167,0.234080,-0.000079,0,0,0,0
2.940770,-0.002420,-0.000064,-0.034797,-0.005645,-0.000031,0.037326,0.000000,0.000732,0.000488,-0.000167,0.234080,-0.000079,0,0,0,0
2.950540,-0.002428,-0.000064,-0.034797,-0.005645,-0.000031,0.037326,0.000000,0.000732,0.000488,-0.000167,0.234080,-0.000079,0,0,0,0
2.960310,-0.002436,-0.000064,-0.034797,-0.005645,-0.000031,0.037326,0.000000,0.000732,0.000488,-0.000167,0.234080,-0.000079,0,0,0,0
2.970080,-0.002445,-0.000064,-0.034797,-0.005645,-0.000031,0.037326,0.000000,0.000732,0.000488,-0.000167,0.234080,-0.000079,0,0,0,0
2.979850,-0.002453,-0.000065,-0.034797,-0.005645,-0.000031,0.037326,0.000000,0.000732,0.000488,-0.000167,0.234080,-0.000079,0,0,0,0
2.989620,-0.002461,-0.000065,-0.034797,-0.005645,-0.000031,0.037326,0.000000,0.000732,0.000488,-0.000167,0.234080,-0.000079,0,0,0,0
2.999390,-0.002470,-0.000065,-0.034797,-0.005645,-0.000031,0.037326,0.000000,0.000732,0.000488,-0.000167,0.234080,-0.000079,0,0,0,0
3.009160,-0.002478,-0.000065,-0.034797,-0.005645,-0.000031,0.037326,0.000000,0.000732,0.000488,-0.000167,0.234080,-0.000079,0,0,0,0
3.018930,-0.002487,-0.000065,-0.034797,-0.005645,-0.000031,0.037326,0.000000,0.000732,0.000488,-0.000167,0.234080,-0.000079,0,0,0,0
3.028700,-0.002495,-0.000066,-0.034797,-0.005645,-0.000031,0.037326,0.000000,0.000732,0.000488,-0.000167,0.234080,-0.000078,0,0,0,0
3.038470,-0.002503,-0.000066,-0.034797,-0.005645,-0.000031,0.037326,0.000000,0.000732,0.000488,-0.000167,0.234080,-0.000078,0,0,0,0
3.048240,-0.002512,-0.000066,-0.034797,-0.005645,-0.000031,0.037326,0.000000,0.000732,0.000488,-0.000167,0.234080,-0.000078,0,0,0,0
3.058010,-0.002520,-0.000066,-0.034797,-0.005645,-0.000031,0.037326,0.000000,0.000732,0.000488,-0.000167,0.234080,-0.000078,0,0,0,0
3.067780,-0.002528,-0.000067,-0.034797,-0.005645,-0.000031,0.037326,0.000000,0.000732,0.000488,-0.000167,0.234080,-0.000078,0,0,0,0
3.077550,-0.002537,-0.000067,-0.034797,-0.005645,-0.000031,0.037326,0.000000,0.000732,0.000488,-0.000167,0.234080,-0.000078,0,0,0,0
3.087320,-0.002545,-0.000067,-0.034797,-0.005645,-0.000031,0.037326,0.000000,0.000732,0.000488,-0.000167,0.234080,-0.000078,0,0,0,0
3.097090,-0.002554,-0.000067,-0.034797,-0.005645,-0.000031,0.037326,0.000000,0.000732,0.000488,-0.000167,0.234080,-0.000078,0,0,0,0
3.106860,-0.002562,-0.000067,-0.034797,-0.005645,-0.000031,0.037326,0.000000,0.000732,0.000488,-0.000167,0.234080,-0.000078,0,0,0,0
3.116630,-0.002570,-0.000068,-0.034797,-0.005645,-0.000031,0.037326,0.000000,0.000732,0.000488,-0.000167,0.234080,-0.000078,0,0,0,0
3.126400,-0.002579,-0.000068,-0.034797,-0.005645,-0.000031,0.037326,0.000000,0.000732,0.000488,-0.000167,0.234080,-0.000078,0,0,0,0
3.136170,-0.002587,-0.000068,-0.034797,-0.005645,-0.000031,0.037326,0.000000,0.000732,0.000488,-0.000167,0.234080,-0.000078,0,0,0,0
3.145940,-0.002595,-0.000068,-0.034797,-0.005645,-0.000031,0.037326,0.000000,0.000732,0.000488,-0.000167,0.234080,-0.000078,0,0,0,0
3.155710,-0.002604,-0.000069,-0.034797,-0.005645,-0.000031,0.037326,0.000000,0.000732,0.000488,-0.000167,0.234080,-0.000078,0,0,0,0
3.165480,-0.002612,-0.000069,-0.034797,-0.005645,-0.000031,0.037326,0.000000,0.000732,0.000488,-0.000167,0.234080,-0.000078,0,0,0,0
3.175250,-0.002620,-0.000069,-0.034797,-0.005645,-0.000031,0.037326,0.000000,0.000732,0.000488,-0.000167,0.234080,-0.000078,0,0,0,0
3.185020,-0.002629,-0.000069,-0.034797,-0.005645,-0.000031,0.037326,0.000000,0.000732,0.000488,-0.000167,0.234080,-0.000078,0,0,0,0
3.194790,-0.002637,-0.000069,-0.034797,-0.005645,-0.000031,0.037326,0.000000,0.000732,0.000488,-0.000167,0.234080,-0.000078,0,0,0,0
3.204560,-0.002646,-0.000070,-0.034797,-0.005645,-0.000031,0.037326,0.000000,0.000732,0.000488,-0.000167,0.234080,-0.000078,0,0,0,0
3.214330,-0.002654,-0.000070,-0.034797,-0.005645,-0.000031,0.037326,0.000000,0.000732,0.000488,-0.000167,0.234080,-0.000078,0,0,0,0
3.224100,-0.002662,-0.000070,-0.034797,-0.005645,-0.000031,0.037326,0.000000,0.000732,0.000488,-0.000167,0.234080,-0.000078,0,0,0,0
3.233870,-0.002671,-0.000070,-0.034797,-0.005645,-0.000031,0.037326,0.000000,0.000732,0.000488,-0.000167,0.234080,-0.000078,0,0,0,0
3.243640,-0.002679,-0.000071,-0.034797,-0.005645,-0.000031,0.037326,0.000000,0.000732,0.000488,-0.000167,0.234080,-0.000078,0,0,0,0
3.253410,-0.002687,-0.000071,-0.034797,-0.005645,-0.000031,0.037326,0.000000,0.000732,0.000488,-0.000167,0.234080,-0.000078,0,0,0,0
3.263180,-0.002696,-0.000071,-0.034797,-0.005645,-0.000031,0.037326,0.000000,0.000732,0.000488,-0.000167,0.234080,-0.000078,0,0,0,0
3.272950,-0.002704,-0.000071,-0.034797,-0.005645,-0.000031,0.037326,0.000000,0.000732,0.000488,-0.000167,0.234080,-0.000078,0,0,0,0
3.282720,-0.002713,-0.000071,-0.034797,-0.005645,-0.000031,0.037326,0.000000,0.000732,0.000488,-0.000167,0.234080,-0.000078,0,0,0,0
3.292490,-0.002721,-0.000072,-0.034797,-0.005645,-0.000031,0.037326,0.000000,0.000732,0.000488,-0.000167,0.234080,-0.000078,0,0,0,0
3.302260,-0.002729,-0.000072,-0.034797,-0.005645,-0.000031,0.037326,0.000000,0.000732,0.000488,-0.000167,0.234080,-0.000078,0,0,0,0
3.312030,-0.002738,-0.000072,-0.034797,-0.005645,-0.000031,0.037326,0.000000,0.000732,0.000488,-0.000167,0.234080,-0.000078,0,0,0,0
3.321800,-0.002746,-0.000072,-0.034797,-0.005645,-0.000031,0.037326,0.000000,0.000732,0.000488,-0.000167,0.234080,-0.000078,0,0,0,0
3.331570,-0.002754,-0.000073,-0.034797,-0.005645,-0.000031,0.037326,0.000000,0.000732,0.000488,-0.000167,0.234080,-0.000078,0,0,0,0
3.341340,-0.002763,-0.000073,-0.034797,-0.005645,-0.000031,0.037326,0.000000,0.000732,0.000488,-0.000167,0.234080,-0.000078,0,0,0,0
3.351110,-0.002771,-0.000073,-0.034797,-0.005645,-0.000031,0.037326,0.000000,0.000732,0.000488,-0.000167,0.234080,-0.000078,0,0,0,0
3.360880,-0.002780,-0.000073,-0.034797,-0.005645,-0.000031,0.037326,0.000000,0.000732,0.000488,-0.000167,0.234080,-0.000078,0,0,0,0
3.370650,-0.002788,-0.000074,-0.034797,-0.005645,-0.000031,0.037326,0.000000,0.000732,0.000488,-0.000167,0.234080,-0.000078,0,0,0,0
3.380420,-0.002796,-0.000074,-0.034797,-0.005645,-0.000031,0.037326,0.000000,0.000732,0.000488,-0.000167,0.234080,-0.000078,0,0,0,0
3.390190,-0.002805,-0.000074,-0.034797,-0.005645,-0.000031,0.037326,0.000000,0.000732,0.000488,-0.000167,0.234080,-0.000078,0,0,0,0
3.399960,-0.002813,-0.000074,-0.034797,-0.005645,-0.000031,0.037326,0.000000,0.000732,0.000488,-0.000167,0.234080,-0.000078,0,0,0,0
3.409730,-0.002821,-0.000074,-0.034797,-0.005645,-0.000031,0.037326,0.000000,0.000732,0.000488,-0.000167,0.234080,-0.000078,0,0,0,0
3.419500,-0.002830,-0.000075,-0.034797,-0.005645,-0.000031,0.037326,0.000000,0.000732,0.000488,-0.000167,0.234080,-0.000078,0,0,0,0
3.429270,-0.002838,-0.000075,-0.034797,-0.005645,-0.000031,0.037326,0.000000,0.000732,0.000488,-0.000167,0.234080,-0.000078,0,0,0,0
3.439040,-0.002847,-0.000075,-0.034797,-0.005645,-0.000031,0.037326,0.000000,0.000732,0.000488,-0.000167,0.234080,-0.000078,0,0,0,0
3.448810,-0.002855,-0.000075,-0.034797,-0.005645,-0.000031,0.037326,0.000000,0.000732,0.000488,-0.000167,0.234080,-0.000078,0,0,0,0
3.458580,-0.002863,-0.000076,-0.034797,-0.005645,-0.000031,0.037326,0.000000,0.000732,0.000488,-0.000167,0.234080,-0.000078,0,0,0,0
3.468350,-0.002872,-0.000076,-0.034797,-0.005645,-0.000031,0.037326,0.000000,0.000732,0.000488,-0.000167,0.234080,-0.000078,0,0,0,0
3.478120,-0.002880,-0.000076,-0.034797,-0.005645,-0.000031,0.037326,0.000000,0.000732,0.000488,-0.000167,0.234080,-0.000078,0,0,0,0
3.487890,-0.002888,-0.000076,-0.034797,-0.005645,-0.000031,0.037326,0.000000,0.000732,0.000488,-0.000167,0.234080,-0.000078,0,0,0,0
3.497660,-0.002897,-0.000076,-0.034797,-0.005645,-0.000031,0.037326,0.000000,0.000732,0.000488,-0.000167,0.234080,-0.000078,0,0,0,0
3.507430,-0.002904,-0.000077,-0.034807,-0.005013,-0.000029,0.032085,0.000000,0.000732,0.000488,-0.000156,0.208115,-0.000068,8556,-5,-197,0
3.517200,-0.002903,-0.000077,-0.034885,-0.002781,-0.000016,0.013446,0.000000,0.000488,0.000488,-0.000087,0.115906,-0.000038,8503,-3,-76,0
3.526970,-0.002898,-0.000077,-0.034968,-0.001089,-0.000006,-0.000800,0.000000,0.000000,0.000488,-0.000034,0.045461,-0.000014,8457,-5,36,0
3.536740,-0.002894,-0.000077,-0.035034,0.000316,-0.000001,-0.007674,0.000000,0.000000,0.000488,-0.000542,-0.027827,-0.000008,8410,-1,144,0
3.546510,-0.002891,-0.000077,-0.035165,0.000342,-0.000002,-0.018765,0.000000,-0.000244,0.000488,-0.001394,-0.031038,-0.000011,8363,0,173,0
3.556280,-0.002887,-0.000077,-0.035445,0.000404,-0.000004,-0.036234,0.000000,-0.000488,0.000488,-0.002111,-0.021797,-0.000015,8321,-5,165,0
3.566050,-0.002882,-0.000077,-0.035921,0.000492,-0.000009,-0.057270,0.000000,-0.000732,0.000488,-0.003135,-0.005031,-0.000021,8272,-2,137,0
3.575820,-0.002877,-0.000077,-0.036620,0.000587,-0.000017,-0.080130,0.000000,-0.000488,0.000488,-0.004217,0.014188,-0.000025,8219,-3,102,0
3.585590,-0.002871,-0.000077,-0.037551,0.000664,-0.000031,-0.103717,0.000000,-0.000244,0.000488,-0.005247,0.031962,-0.000029,8172,0,66,0
3.595360,-0.002864,-0.000078,-0.038720,0.000702,-0.000051,-0.127384,-0.000244,0.000000,0.000488,-0.006016,0.045788,-0.000031,8119,0,35,0
3.605130,-0.002857,-0.000078,-0.040124,0.000685,-0.000078,-0.150720,-0.000244,0.000244,0.000488,-0.006511,0.054428,-0.000032,8076,2,10,0
3.614900,-0.002850,-0.000079,-0.041759,0.000602,-0.000113,-0.173498,-0.000244,0.000732,0.000488,-0.006760,0.057640,-0.000032,8025,0,-8,0
3.624670,-0.002845,-0.000081,-0.043617,0.000451,-0.000155,-0.195579,-0.000244,0.001465,0.000488,-0.006876,0.055903,-0.000032,7983,1,-20,0
3.634440,-0.002842,-0.000083,-0.045693,0.000235,-0.000206,-0.216901,-0.000244,0.001953,0.000488,-0.006754,0.049993,-0.000032,7937,2,-27,0
3.644210,-0.002841,-0.000085,-0.047978,-0.000038,-0.000263,-0.237423,-0.000488,0.002441,0.000488,-0.006452,0.040860,-0.000030,7890,2,-24,0
3.653980,-0.002843,-0.000088,-0.050464,-0.000355,-0.000328,-0.257121,-0.000488,0.002686,0.000488,-0.006005,0.029726,-0.000028,7845,3,-21,0
3.663750,-0.002848,-0.000092,-0.053142,-0.000703,-0.000399,-0.275983,-0.000488,0.002930,0.000488,-0.005326,0.017804,-0.000026,7799,3,-18,0
3.673520,-0.002857,-0.000096,-0.056005,-0.001067,-0.000475,-0.294015,-0.000488,0.003174,0.000488,-0.004480,0.005849,-0.000022,7760,5,-7,0
3.683290,-0.002870,-0.000101,-0.059043,-0.001432,-0.000555,-0.311251,-0.000732,0.003174,0.000488,-0.003441,-0.005440,-0.000018,7727,3,2,0
3.693060,-0.002886,-0.000107,-0.062250,-0.001786,-0.000638,-0.327703,-0.000732,0.002930,0.000488,-0.002421,-0.015455,-0.000013,7682,2,11,0
3.702830,-0.002906,-0.000114,-0.065617,-0.002116,-0.000722,-0.343390,-0.000732,0.002686,0.000488,-0.001444,-0.023757,-0.000009,7642,2,24,0
3.712600,-0.002929,-0.000122,-0.069138,-0.002415,-0.000807,-0.358325,-0.000732,0.002441,0.000488,-0.000562,-0.030038,-0.000005,7606,2,35,0
3.722370,-0.002955,-0.000130,-0.072803,-0.002675,-0.000891,-0.372530,-0.000732,0.002197,0.000488,0.000195,-0.034109,-0.000002,7567,1,44,0
3.732140,-0.002983,-0.000140,-0.076607,-0.002892,-0.000974,-0.386025,-0.000732,0.001709,0.000488,0.000848,-0.035973,0.000000,7528,0,49,0
3.741910,-0.003012,-0.000150,-0.080542,-0.003065,-0.001055,-0.398826,-0.000732,0.001465,0.000488,0.001362,-0.035769,0.000002,7500,1,58,0
3.751680,-0.003044,-0.000161,-0.084602,-0.003196,-0.001132,-0.410975,-0.000732,0.000977,0.000488,0.001762,-0.033705,0.000004,7469,0,62,0
3.761450,-0.003076,-0.000173,-0.088780,-0.003286,-0.001207,-0.422485,-0.000732,0.000732,0.000488,0.002012,-0.030146,0.000004,7428,1,63,0
3.771220,-0.003110,-0.000185,-0.093069,-0.003341,-0.001279,-0.433355,-0.000488,0.000488,0.000488,0.002223,-0.025478,0.000005,7392,-1,64,0
3.780990,-0.003143,-0.000198,-0.097464,-0.003368,-0.001346,-0.443606,-0.000488,0.000244,0.000488,0.002334,-0.020054,0.000004,7362,-1,62,0
3.790760,-0.003177,-0.000212,-0.101958,-0.003371,-0.001411,-0.453260,-0.000488,0.000000,0.000488,0.002319,-0.014246,0.000004,7336,-1,59,0
3.800530,-0.003211,-0.000227,-0.106546,-0.003358,-0.001471,-0.462342,-0.000488,0.000000,0.000488,0.002253,-0.008443,0.000003,7301,-2,53,0
3.810300,-0.003244,-0.000242,-0.111221,-0.003336,-0.001529,-0.470859,-0.000488,0.000000,0.000488,0.002043,-0.003009,0.000001,7271,-2,51,0
3.820070,-0.003277,-0.000257,-0.115979,-0.003311,-0.001583,-0.478833,-0.000488,0.000000,0.000488,0.001669,0.001867,-0.000001,7248,-1,46,0
3.829840,-0.003310,-0.000273,-0.120813,-0.003288,-0.001635,-0.486282,-0.000488,0.000000,0.000488,0.001296,0.006020,-0.000003,7220,-2,41,0
3.839610,-0.003343,-0.000290,-0.125720,-0.003272,-0.001684,-0.493234,-0.000488,0.000000,0.000488,0.000854,0.009279,-0.000006,7188,-2,36,0
3.849380,-0.003376,-0.000307,-0.130693,-0.003266,-0.001732,-0.499696,-0.000488,0.000244,0.000488,0.000439,0.011547,-0.000008,7162,0,29,0
3.859150,-0.003409,-0.000325,-0.135728,-0.003272,-0.001779,-0.505694,-0.000488,0.000244,0.000488,0.000110,0.012735,-0.000010,7141,0,28,0
3.868920,-0.003442,-0.000343,-0.140821,-0.003291,-0.001825,-0.511240,-0.000488,0.000488,0.000488,-0.000180,0.012996,-0.000012,7111,0,25,0
3.878690,-0.003475,-0.000361,-0.145967,-0.003324,-0.001871,-0.516348,-0.000488,0.000488,0.000488,-0.000430,0.012452,-0.000013,7088,0,23,0
3.888460,-0.003508,-0.000380,-0.151162,-0.003370,-0.001916,-0.521027,-0.000488,0.000732,0.000488,-0.000665,0.011286,-0.000015,7069,0,22,0
3.898230,-0.003542,-0.000400,-0.156401,-0.003427,-0.001962,-0.525289,-0.000488,0.000732,0.000488,-0.000929,0.009590,-0.000017,7044,0,19,0
3.908000,-0.003577,-0.000420,-0.161681,-0.003494,-0.002007,-0.529144,-0.000488,0.000732,0.000488,-0.001129,0.007502,-0.000018,7024,1,22,0
3.917770,-0.003612,-0.000440,-0.166997,-0.003567,-0.002054,-0.532612,-0.000488,0.000977,0.000488,-0.001223,0.005254,-0.000019,7002,1,23,0
3.927540,-0.003648,-0.000461,-0.172346,-0.003645,-0.002101,-0.535709,-0.000488,0.000977,0.000488,-0.001260,0.003058,-0.000020,6980,0,24,0
3.937310,-0.003685,-0.000482,-0.177724,-0.003725,-0.002148,-0.538440,-0.000488,0.000977,0.000488,-0.001226,0.001000,-0.000021,6950,0,26,0
3.947080,-0.003723,-0.000504,-0.183127,-0.003805,-0.002197,-0.540806,-0.000488,0.000977,0.000488,-0.001168,-0.000866,-0.000021,6935,0,27,0
3.956850,-0.003762,-0.000526,-0.188552,-0.003883,-0.002246,-0.542826,-0.000488,0.000977,0.000488,-0.001070,-0.002375,-0.000021,6914,0,26,0
3.966620,-0.003801,-0.000549,-0.193995,-0.003958,-0.002295,-0.544514,-0.000488,0.000977,0.000488,-0.000947,-0.003603,-0.000022,6893,0,30,0
3.976390,-0.003841,-0.000572,-0.199453,-0.004028,-0.002345,-0.545883,-0.000488,0.000977,0.000488,-0.000797,-0.004471,-0.000022,6878,0,32,0
3.986160,-0.003882,-0.000596,-0.204924,-0.004092,-0.002395,-0.546944,-0.000488,0.000732,0.000488,-0.000643,-0.005020,-0.000022,6857,0,33,0
3.995930,-0.003923,-0.000620,-0.210403,-0.004150,-0.002444,-0.547714,-0.000488,0.000732,0.000488,-0.000473,-0.005234,-0.000022,6847,0,32,0
4.005700,-0.003965,-0.000645,-0.215889,-0.004203,-0.002494,-0.548206,-0.000488,0.000732,0.000488,-0.000302,-0.005188,-0.000022,6829,0,35,0
4.015470,-0.004007,-0.000670,-0.221378,-0.004249,-0.002543,-0.548432,-0.000488,0.000732,0.000488,-0.000161,-0.004906,-0.000023,6811,0,35,0
4.025240,-0.004050,-0.000696,-0.226867,-0.004289,-0.002592,-0.548398,-0.000488,0.000732,0.000488,0.000004,-0.004441,-0.000023,6796,0,33,0
4.035010,-0.004093,-0.000722,-0.232356,-0.004324,-0.002640,-0.548127,-0.000488,0.000488,0.000488,0.000179,-0.003949,-0.000023,6782,2,35,0
4.044780,-0.004136,-0.000749,-0.237840,-0.004355,-0.002688,-0.547615,-0.000488,0.000488,0.000488,0.000349,-0.003269,-0.000023,6770,0,36,0
4.054550,-0.004180,-0.000776,-0.243318,-0.004382,-0.002734,-0.546884,-0.000488,0.000488,0.000488,0.000512,-0.002454,-0.000023,6748,0,35,0
4.064320,-0.004224,-0.000803,-0.248787,-0.004407,-0.002780,-0.545923,-0.000488,0.000488,0.000488,0.000663,-0.001597,-0.000024,6741,0,35,0
4.074090,-0.004268,-0.000831,-0.254245,-0.004429,-0.002824,-0.544758,-0.000488,0.000488,0.000488,0.000806,-0.000765,-0.000024,6728,1,33,0
4.083860,-0.004313,-0.000860,-0.259691,-0.004450,-0.002866,-0.543400,-0.000488,0.000488,0.000488,0.000935,0.000001,-0.000025,6705,0,30,0
4.093630,-0.004357,-0.000889,-0.265122,-0.004471,-0.002908,-0.541820,-0.000488,0.000488,0.000488,0.001026,0.000621,-0.000026,6693,1,32,0
4.103400,-0.004402,-0.000918,-0.270536,-0.004492,-0.002947,-0.540029,-0.000488,0.000488,0.000488,0.001182,0.001126,-0.000026,6684,0,32,0
4.113170,-0.004447,-0.000948,-0.275931,-0.004513,-0.002985,-0.538054,-0.000488,0.000488,0.000488,0.001301,0.001471,-0.000027,6672,-1,31,0
4.122940,-0.004493,-0.000978,-0.281305,-0.004536,-0.003022,-0.535911,-0.000488,0.000488,0.000488,0.001310,0.001714,-0.000028,6658,0,31,0
4.132710,-0.004538,-0.001008,-0.286657,-0.004561,-0.003056,-0.533608,-0.000488,0.000488,0.000488,0.001283,0.001837,-0.000029,6651,-1,30,0
4.142480,-0.004584,-0.001039,-0.291985,-0.004587,-0.003089,-0.531148,-0.000488,0.000488,0.000488,0.001189,0.001825,-0.000031,6639,-1,27,0
4.152250,-0.004630,-0.001070,-0.297287,-0.004614,-0.003120,-0.528532,-0.000488,0.000488,0.000488,0.001052,0.001718,-0.000033,6633,-1,29,0
4.162020,-0.004676,-0.001102,-0.302563,-0.004642,-0.003150,-0.525786,-0.000488,0.000488,0.000488,0.000841,0.001513,-0.000035,6621,-1,29,0
4.171790,-0.004723,-0.001133,-0.307811,-0.004672,-0.003178,-0.522934,-0.000488,0.000732,0.000488,0.000600,0.001257,-0.000037,6614,-1,29,0
4.181560,-0.004770,-0.001165,-0.313029,-0.004703,-0.003206,-0.519965,-0.000488,0.000732,0.000488,0.000333,0.000960,-0.000039,6601,0,29,0
4.191330,-0.004817,-0.001198,-0.318217,-0.004734,-0.003233,-0.516872,-0.000488,0.000732,0.000488,0.000065,0.000634,-0.000042,6596,-1,29,0
4.201100,-0.004865,-0.001230,-0.323373,-0.004766,-0.003259,-0.513671,-0.000488,0.000732,0.000488,-0.000202,0.000308,-0.000044,6589,0,30,0
4.210870,-0.004913,-0.001263,-0.328497,-0.004797,-0.003286,-0.510371,-0.000488,0.000732,0.000488,-0.000465,0.000041,-0.000047,6574,-1,30,0
4.220640,-0.004961,-0.001296,-0.333587,-0.004828,-0.003312,-0.506952,-0.000488,0.000732,0.000488,-0.000702,-0.000179,-0.000049,6570,0,30,0
4.230410,-0.005009,-0.001329,-0.338642,-0.004858,-0.003339,-0.503440,-0.000488,0.000732,0.000488,-0.000885,-0.000344,-0.000051,6554,0,30,0
4.240180,-0.005058,-0.001363,-0.343662,-0.004888,-0.003367,-0.499818,-0.000488,0.000732,0.000488,-0.000990,-0.000494,-0.000053,6555,0,30,0
4.249950,-0.005107,-0.001397,-0.348645,-0.004917,-0.003395,-0.496110,-0.000488,0.000732,0.000488,-0.001033,-0.000608,-0.000054,6541,0,30,0
4.259720,-0.005157,-0.001431,-0.353590,-0.004945,-0.003424,-0.492317,-0.000488,0.000732,0.000488,-0.001034,-0.000700,-0.000055,6537,0,28,0
4.269490,-0.005206,-0.001465,-0.358497,-0.004972,-0.003453,-0.488453,-0.000488,0.000732,0.000488,-0.001017,-0.000770,-0.000057,6538,0,30,0
4.279260,-0.005256,-0.001500,-0.363365,-0.004998,-0.003483,-0.484521,-0.000488,0.000488,0.000488,-0.000977,-0.000782,-0.000058,6523,0,29,0
4.289030,-0.005306,-0.001535,-0.368193,-0.005022,-0.003514,-0.480524,-0.000488,0.000488,0.000488,-0.000927,-0.000762,-0.000059,6518,0,31,0
4.298800,-0.005357,-0.001570,-0.372981,-0.005046,-0.003545,-0.476468,-0.000488,0.000488,0.000488,-0.000870,-0.000704,-0.000060,6519,0,31,0
4.308570,-0.005407,-0.001606,-0.377728,-0.005069,-0.003577,-0.472361,-0.000488,0.000488,0.000488,-0.000792,-0.000638,-0.000061,6507,0,31,0
4.318340,-0.005458,-0.001642,-0.382433,-0.005091,-0.003609,-0.468203,-0.000488,0.000488,0.000488,-0.000701,-0.000555,-0.000062,6501,2,29,0
4.328110,-0.005509,-0.001678,-0.387097,-0.005112,-0.003642,-0.463999,-0.000488,0.000488,0.000488,-0.000617,-0.000476,-0.000063,6500,0,31,0
4.337880,-0.005561,-0.001715,-0.391718,-0.005132,-0.003675,-0.459753,-0.000488,0.000488,0.000488,-0.000510,-0.000385,-0.000064,6495,0,31,0
4.347650,-0.005612,-0.001752,-0.396297,-0.005152,-0.003708,-0.455471,-0.000488,0.000488,0.000488,-0.000406,-0.000325,-0.000065,6496,0,29,0
4.357420,-0.005664,-0.001789,-0.400832,-0.005171,-0.003741,-0.451163,-0.000488,0.000488,0.000488,-0.000295,-0.000281,-0.000066,6483,0,31,0
4.367190,-0.005716,-0.001827,-0.405324,-0.005190,-0.003774,-0.446825,-0.000488,0.000488,0.000488,-0.000168,-0.000230,-0.000067,6479,0,28,0
4.376960,-0.005768,-0.001865,-0.409773,-0.005208,-0.003806,-0.442462,-0.000488,0.000488,0.000488,-0.000031,-0.000255,-0.000068,6476,0,31,0
4.386730,-0.005820,-0.001903,-0.414178,-0.005225,-0.003839,-0.438064,-0.000488,0.000488,0.000488,0.000141,-0.000311,-0.000069,6469,2,30,0
4.396500,-0.005872,-0.001942,-0.418539,-0.005243,-0.003871,-0.433634,-0.000488,0.000488,0.000488,0.000325,-0.000309,-0.000069,6469,0,28,0
4.406270,-0.005925,-0.001981,-0.422855,-0.005259,-0.003902,-0.429183,-0.000488,0.000488,0.000488,0.000520,-0.000303,-0.000070,6465,0,32,0
4.416040,-0.005978,-0.002020,-0.427126,-0.005276,-0.003933,-0.424717,-0.000488,0.000488,0.000488,0.000702,-0.000186,-0.000071,6459,0,31,0
4.425810,-0.006031,-0.002059,-0.431353,-0.005292,-0.003962,-0.420239,-0.000488,0.000488,0.000488,0.000850,-0.000035,-0.000072,6460,0,31,0
4.435580,-0.006084,-0.002099,-0.435535,-0.005307,-0.003990,-0.415757,-0.000488,0.000488,0.000488,0.000968,0.000124,-0.000073,6454,1,31,0
4.445350,-0.006137,-0.002139,-0.439672,-0.005323,-0.004017,-0.411268,-0.000488,0.000488,0.000488,0.001065,0.000271,-0.000074,6454,0,31,0
4.455120,-0.006190,-0.002180,-0.443764,-0.005339,-0.004043,-0.406773,-0.000488,0.000488,0.000488,0.001140,0.000420,-0.000075,6448,0,30,0
4.464890,-0.006244,-0.002220,-0.447811,-0.005355,-0.004068,-0.402274,-0.000488,0.000488,0.000488,0.001185,0.000542,-0.000077,6449,0,30,0
4.474660,-0.006297,-0.002261,-0.451813,-0.005371,-0.004091,-0.397777,-0.000488,0.000488,0.000488,0.001173,0.000637,-0.000078,6444,0,30,0
4.484430,-0.006351,-0.002302,-0.455770,-0.005388,-0.004112,-0.393289,-0.000488,0.000488,0.000488,0.001097,0.000699,-0.000080,6444,0,27,0
4.494200,-0.006405,-0.002343,-0.459682,-0.005405,-0.004121,-0.388807,-0.000488,0.000488,0.000244,0.000630,0.000732,-0.047093,6438,-1,30,-1016
4.503970,-0.006459,-0.002385,-0.463550,-0.005423,-0.004128,-0.384333,-0.000488,0.000488,-0.000244,0.000093,0.000777,-0.094148,6436,-1,29,-901
4.513740,-0.006514,-0.002426,-0.467372,-0.005441,-0.004141,-0.379861,-0.000488,0.000488,-0.001221,-0.000356,0.000765,-0.120075,6438,-1,29,-696
4.523510,-0.006568,-0.002468,-0.471150,-0.005460,-0.004166,-0.375393,-0.000488,0.000488,-0.002441,-0.000463,0.000724,-0.098291,6438,0,29,1406
4.533280,-0.006623,-0.002510,-0.474883,-0.005479,-0.004227,-0.370931,-0.000488,0.000488,-0.002686,0.000518,0.000689,0.059208,6438,-1,29,3789
4.543050,-0.006678,-0.002552,-0.478572,-0.005499,-0.004306,-0.366488,-0.000488,0.000488,-0.000732,0.001994,0.000592,0.294115,6429,-5,26,4500
4.552820,-0.006733,-0.002596,-0.482216,-0.005519,-0.004371,-0.362051,-0.000488,0.000732,0.002930,0.002743,0.000290,0.482746,6429,-6,27,4500
4.562590,-0.006789,-0.002640,-0.485816,-0.005538,-0.004421,-0.357623,-0.000488,0.000732,0.008545,0.002661,-0.000108,0.627146,6424,-8,27,4500
4.572360,-0.006844,-0.002684,-0.489371,-0.005556,-0.004461,-0.353213,-0.000488,0.000732,0.015381,0.001942,-0.000537,0.743895,6431,-6,27,4500
4.582130,-0.006900,-0.002729,-0.492883,-0.005574,-0.004494,-0.348831,-0.000488,0.000732,0.023438,0.000907,-0.001017,0.843388,6431,-5,27,4500
4.591900,-0.006956,-0.002774,-0.496350,-0.005589,-0.004524,-0.344484,-0.000244,0.000488,0.032471,-0.000178,-0.001495,0.932173,6427,-5,29,4500
4.601670,-0.007012,-0.002820,-0.499775,-0.005602,-0.004551,-0.340169,-0.000488,0.000488,0.042236,-0.001219,-0.001859,1.014365,6428,-4,26,4500
4.611440,-0.007068,-0.002866,-0.503156,-0.005613,-0.004578,-0.335907,-0.000488,0.000488,0.052734,-0.002118,-0.002227,1.092228,6443,-3,26,4500
4.621210,-0.007124,-0.002912,-0.506496,-0.005621,-0.004606,-0.331755,-0.000488,0.000488,0.064209,-0.002779,-0.002753,1.167562,6445,-2,27,4500
4.630980,-0.007180,-0.002958,-0.509794,-0.005625,-0.004636,-0.327691,-0.000488,0.000488,0.076172,-0.003199,-0.003361,1.241482,6444,-1,28,4500
4.640750,-0.007237,-0.003004,-0.513052,-0.005626,-0.004668,-0.323678,-0.000488,0.000488,0.089111,-0.003326,-0.003882,1.314513,6444,0,29,4500
4.650520,-0.007293,-0.003051,-0.516271,-0.005621,-0.004703,-0.319714,-0.000488,0.000488,0.102539,-0.003190,-0.004289,1.386953,6438,0,29,4500
4.660290,-0.007349,-0.003099,-0.519449,-0.005611,-0.004739,-0.315795,-0.000488,0.000488,0.116699,-0.002881,-0.004541,1.459064,6441,0,30,4500
4.670060,-0.007405,-0.003146,-0.522589,-0.005596,-0.004777,-0.311923,-0.000488,0.000244,0.131836,-0.002456,-0.004606,1.530956,6447,1,30,4500
4.679830,-0.007461,-0.003194,-0.525690,-0.005576,-0.004816,-0.308099,-0.000488,0.000244,0.147461,-0.001873,-0.004598,1.602694,6448,1,30,4500
4.689600,-0.007517,-0.003243,-0.528754,-0.005550,-0.004856,-0.304324,-0.000488,0.000244,0.163818,-0.001203,-0.004531,1.674336,6442,1,30,4500
4.699370,-0.007572,-0.003291,-0.531779,-0.005519,-0.004896,-0.300595,-0.000488,0.000244,0.181152,-0.000479,-0.004416,1.745946,6441,1,31,4500
4.709140,-0.007627,-0.003341,-0.534768,-0.005484,-0.004934,-0.296904,-0.000488,0.000244,0.198975,0.000265,-0.004230,1.817587,6444,0,28,4500
4.718910,-0.007682,-0.003390,-0.537720,-0.005443,-0.004971,-0.293247,-0.000488,0.000244,0.217529,0.000957,-0.004168,1.889202,6449,0,29,4500
4.728680,-0.007736,-0.003440,-0.540635,-0.005398,-0.005006,-0.289625,-0.000488,0.000244,0.236816,0.001609,-0.004116,1.960777,6459,0,29,4500
4.738450,-0.007790,-0.003491,-0.543515,-0.005350,-0.005037,-0.286081,-0.000488,0.000244,0.256836,0.002234,-0.004035,2.031996,6455,0,30,4500
4.748220,-0.007843,-0.003541,-0.546359,-0.005297,-0.005064,-0.282645,-0.000488,0.000244,0.277588,0.002832,-0.003876,2.103415,6453,-3,26,4500
4.757990,-0.007896,-0.003592,-0.549170,-0.005241,-0.005087,-0.279268,-0.000488,0.000000,0.298828,0.003174,-0.003890,2.174934,6460,-3,27,4500
4.767760,-0.007948,-0.003643,-0.551947,-0.005182,-0.005105,-0.275942,-0.000488,0.000000,0.321045,0.003206,-0.004025,2.246435,6459,-3,25,4500
4.777530,-0.008000,-0.003694,-0.554691,-0.005119,-0.005118,-0.272663,-0.000244,0.000000,0.343994,0.003088,-0.004303,2.317925,6458,-4,26,4500
4.787300,-0.008051,-0.003745,-0.557403,-0.005053,-0.005126,-0.269432,-0.000244,0.000000,0.367432,0.002804,-0.004640,2.389435,6460,-5,25,4500
4.797070,-0.008101,-0.003797,-0.560082,-0.004983,-0.005129,-0.266251,-0.000244,0.000000,0.391846,0.002302,-0.005045,2.460944,6461,-5,25,4500
4.806840,-0.008150,-0.003848,-0.562730,-0.004909,-0.005127,-0.263111,-0.000244,0.000000,0.416992,0.001640,-0.005509,2.532472,6460,-5,26,4500
4.816610,-0.008199,-0.003899,-0.565347,-0.004831,-0.005121,-0.260007,-0.000244,0.000000,0.442627,0.000884,-0.006008,2.604028,6461,-5,26,4500
4.826380,-0.008247,-0.003951,-0.567932,-0.004747,-0.005110,-0.256938,-0.000244,0.000000,0.468994,0.000144,-0.006575,2.671559,6460,-2,24,4009
4.836150,-0.008294,-0.004002,-0.570488,-0.004664,-0.005084,-0.253911,-0.000244,0.000000,0.495850,-0.000651,-0.007255,2.692838,6460,-1,26,3079
4.845920,-0.008340,-0.004052,-0.573013,-0.004580,-0.005045,-0.250930,-0.000244,0.000000,0.522705,-0.001538,-0.007909,2.670359,6470,-1,27,2180
4.855690,-0.008386,-0.004103,-0.575509,-0.004495,-0.004998,-0.247995,-0.000244,0.000000,0.549072,-0.002378,-0.008459,2.618546,6484,0,28,1331
4.865460,-0.008430,-0.004152,-0.577975,-0.004406,-0.004944,-0.245164,-0.000244,-0.000244,0.574951,-0.003127,-0.008857,2.547266,6485,1,29,547
4.875230,-0.008474,-0.004201,-0.580414,-0.004312,-0.004887,-0.242439,-0.000488,-0.000244,0.600098,-0.003684,-0.009077,2.463834,6484,3,30,-153
4.885000,-0.008516,-0.004250,-0.582826,-0.004212,-0.004827,-0.239796,-0.000488,-0.000244,0.624268,-0.003912,-0.009124,2.373793,6482,4,31,-755
4.894770,-0.008558,-0.004298,-0.585213,-0.004106,-0.004767,-0.237221,-0.000488,-0.000488,0.647461,-0.003705,-0.009018,2.281892,6492,6,30,-1242
4.904540,-0.008598,-0.004345,-0.587573,-0.003992,-0.004705,-0.234709,-0.000488,-0.000488,0.669678,-0.003020,-0.008889,2.192519,6490,7,32,-1604
4.914310,-0.008638,-0.004392,-0.589909,-0.003872,-0.004643,-0.232242,-0.000488,-0.000732,0.691162,-0.001922,-0.008632,2.109610,6490,7,33,-1837
4.924080,-0.008676,-0.004438,-0.592221,-0.003744,-0.004581,-0.229819,-0.000488,-0.000732,0.711914,-0.000521,-0.008174,2.036555,6490,7,33,-1945
4.933850,-0.008712,-0.004484,-0.594508,-0.003610,-0.004517,-0.227444,-0.000488,-0.000732,0.731934,0.001095,-0.007564,1.975940,6489,6,33,-1936
4.943620,-0.008748,-0.004529,-0.596772,-0.003470,-0.004451,-0.225115,-0.000488,-0.000732,0.751465,0.002788,-0.006823,1.929467,6490,5,34,-1825
4.953390,-0.008782,-0.004573,-0.599012,-0.003327,-0.004383,-0.222824,-0.000488,-0.000732,0.770508,0.004441,-0.005952,1.897876,6487,3,34,-1630
4.963160,-0.008814,-0.004616,-0.601231,-0.003182,-0.004310,-0.220561,-0.000488,-0.000732,0.789307,0.005925,-0.005011,1.881015,6498,1,33,-1373
4.972930,-0.008845,-0.004659,-0.603426,-0.003036,-0.004234,-0.218339,-0.000488,-0.000977,0.808105,0.007097,-0.004050,1.877926,6492,0,33,-1076
4.982700,-0.008875,-0.004701,-0.605600,-0.002892,-0.004152,-0.216157,-0.000488,-0.000977,0.827148,0.007940,-0.003063,1.886967,6514,-1,33,-759
4.992470,-0.008903,-0.004742,-0.607752,-0.002751,-0.004065,-0.214072,-0.000488,-0.000977,0.845947,0.008526,-0.002111,1.906126,6511,-2,32,-442
5.002240,-0.008930,-0.004782,-0.609884,-0.002614,-0.003973,-0.212072,-0.000488,-0.000977,0.865234,0.008825,-0.001253,1.932979,6511,-3,31,-142
5.012010,-0.008955,-0.004821,-0.611996,-0.002483,-0.003876,-0.210130,-0.000244,-0.000977,0.884521,0.008756,-0.000513,1.965110,6511,-4,30,127
5.021780,-0.008979,-0.004860,-0.614089,-0.002359,-0.003774,-0.208238,-0.000244,-0.000977,0.904541,0.008300,0.000102,2.000146,6510,-5,29,354
5.031550,-0.009002,-0.004897,-0.616163,-0.002242,-0.003667,-0.206390,-0.000244,-0.000977,0.924561,0.007470,0.000529,2.035848,6511,-5,29,534
5.041320,-0.009024,-0.004933,-0.618219,-0.002132,-0.003557,-0.204584,-0.000244,-0.000977,0.945312,0.006360,0.000809,2.070242,6516,-5,28,661
5.051090,-0.009045,-0.004968,-0.620257,-0.002029,-0.003443,-0.202819,0.000000,-0.000977,0.966064,0.005106,0.000948,2.101624,6522,-4,29,736
5.060860,-0.009065,-0.005002,-0.622278,-0.001933,-0.003327,-0.201090,0.000000,-0.000977,0.987305,0.003849,0.000984,2.128719,6521,-3,29,762
5.070630,-0.009084,-0.005034,-0.624281,-0.001842,-0.003210,-0.199402,0.000000,-0.000977,1.008545,0.002704,0.001005,2.150585,6520,-2,28,743
5.080400,-0.009102,-0.005066,-0.626268,-0.001756,-0.003092,-0.197746,0.000000,-0.000977,1.030273,0.001712,0.000965,2.166681,6519,-2,28,686
5.090170,-0.009119,-0.005096,-0.628238,-0.001674,-0.002974,-0.196115,0.000000,-0.000977,1.052002,0.000844,0.000844,2.176874,6520,-1,28,598
5.099940,-0.009135,-0.005125,-0.630193,-0.001596,-0.002857,-0.194521,0.000000,-0.000977,1.073730,0.000102,0.000680,2.181333,6524,-1,31,489
5.109710,-0.009151,-0.005153,-0.632131,-0.001520,-0.002740,-0.192977,0.000000,-0.000732,1.095703,-0.000525,0.000608,2.180532,6542,0,31,367
5.119480,-0.009165,-0.005180,-0.634055,-0.001446,-0.002624,-0.191550,0.000000,-0.000732,1.117432,-0.001014,0.000711,2.175187,6540,0,31,240
5.129250,-0.009180,-0.005206,-0.635965,-0.001373,-0.002510,-0.190211,-0.000244,-0.000732,1.139160,-0.001362,0.000888,2.166187,6540,0,30,116
5.139020,-0.009193,-0.005230,-0.637862,-0.001301,-0.002398,-0.188940,-0.000244,-0.000732,1.160645,-0.001628,0.001061,2.154471,6545,1,31,1
5.148790,-0.009205,-0.005254,-0.639747,-0.001229,-0.002289,-0.187724,-0.000244,-0.000732,1.182129,-0.001749,0.001278,2.141053,6545,1,30,-99
5.158560,-0.009217,-0.005276,-0.641619,-0.001157,-0.002182,-0.186552,-0.000244,-0.000732,1.203613,-0.001735,0.001480,2.126818,6544,2,30,-182
5.168330,-0.009229,-0.005297,-0.643480,-0.001085,-0.002079,-0.185416,-0.000244,-0.000732,1.224854,-0.001527,0.001656,2.112615,6550,2,30,-245
5.178100,-0.009239,-0.005318,-0.645330,-0.001013,-0.001978,-0.184317,-0.000244,-0.000732,1.245850,-0.001187,0.001814,2.099207,6548,2,30,-288
5.187870,-0.009249,-0.005337,-0.647169,-0.000941,-0.001881,-0.183239,-0.000488,-0.000732,1.266602,-0.000788,0.001941,2.087206,6549,2,28,-310
5.197640,-0.009258,-0.005355,-0.648998,-0.000870,-0.001787,-0.182187,-0.000488,-0.000732,1.287598,-0.000341,0.001923,2.077086,6551,2,29,-312
5.207410,-0.009266,-0.005373,-0.650816,-0.000799,-0.001696,-0.181164,-0.000488,-0.000732,1.308350,0.000137,0.001869,2.069173,6553,2,28,-298
5.217180,-0.009274,-0.005389,-0.652624,-0.000729,-0.001608,-0.180171,-0.000488,-0.000732,1.328857,0.000609,0.001766,2.063598,6551,1,28,-269
5.226950,-0.009281,-0.005405,-0.654422,-0.000660,-0.001522,-0.179206,-0.000488,-0.000488,1.349609,0.001033,0.001604,2.060372,6559,0,28,-230
5.236720,-0.009287,-0.005419,-0.656211,-0.000593,-0.001439,-0.178265,-0.000488,-0.000488,1.370117,0.001325,0.001380,2.059391,6559,0,28,-183
5.246490,-0.009292,-0.005433,-0.657990,-0.000527,-0.001357,-0.177350,-0.000488,-0.000488,1.390869,0.001488,0.001147,2.060414,6557,-1,29,-132
5.256260,-0.009297,-0.005446,-0.659760,-0.000464,-0.001277,-0.176462,-0.000488,-0.000488,1.411377,0.001484,0.000969,2.063145,6562,-1,29,-81
5.266030,-0.009302,-0.005459,-0.661522,-0.000402,-0.001199,-0.175598,-0.000488,-0.000488,1.432129,0.001368,0.000806,2.067209,6561,-2,28,-32
5.275800,-0.009305,-0.005470,-0.663275,-0.000343,-0.001121,-0.174752,-0.000488,-0.000488,1.452637,0.001090,0.000604,2.072231,6560,-2,29,12
5.285570,-0.009309,-0.005481,-0.665020,-0.000286,-0.001045,-0.173935,-0.000488,-0.000488,1.473389,0.000749,0.000440,2.077755,6555,-1,32,51
5.295340,-0.009311,-0.005491,-0.666756,-0.000229,-0.000970,-0.173123,-0.000488,-0.000488,1.494385,0.000382,0.000421,2.083514,6556,-1,31,82
5.305110,-0.009313,-0.005501,-0.668485,-0.000174,-0.000895,-0.172328,-0.000488,-0.000488,1.515137,0.000067,0.000557,2.089150,6561,-1,32,105
5.314880,-0.009315,-0.005509,-0.670206,-0.000120,-0.000822,-0.171552,-0.000488,-0.000488,1.536133,-0.000225,0.000820,2.094380,6561,-1,32,119
5.324650,-0.009315,-0.005517,-0.671919,-0.000067,-0.000750,-0.170797,-0.000488,-0.000488,1.557129,-0.000514,0.001183,2.098960,6564,-1,32,125
5.334420,-0.009316,-0.005524,-0.673624,-0.000014,-0.000680,-0.170064,-0.000488,-0.000488,1.578125,-0.000782,0.001620,2.102728,6563,0,32,123
5.344190,-0.009316,-0.005531,-0.675323,0.000038,-0.000612,-0.169333,-0.000488,-0.000488,1.599121,-0.000960,0.002127,2.105575,6562,0,32,115
5.353960,-0.009315,-0.005536,-0.677014,0.000091,-0.000547,-0.168621,-0.000488,-0.000244,1.620117,-0.001084,0.002672,2.107473,6559,0,31,102
5.363730,-0.009314,-0.005541,-0.678698,0.000144,-0.000485,-0.167923,-0.000488,-0.000244,1.641113,-0.001180,0.003139,2.108429,6565,0,30,85
5.373500,-0.009312,-0.005546,-0.680375,0.000197,-0.000426,-0.167248,-0.000488,-0.000244,1.662354,-0.001263,0.003474,2.108538,6564,0,29,66
5.383270,-0.009310,-0.005550,-0.682046,0.000251,-0.000372,-0.166579,-0.000488,-0.000244,1.683350,-0.001341,0.003656,2.107867,6571,0,28,45
5.393040,-0.009307,-0.005553,-0.683709,0.000306,-0.000321,-0.165936,-0.000488,-0.000244,1.704590,-0.001414,0.003709,2.106557,6568,0,28,25
5.402810,-0.009304,-0.005556,-0.685367,0.000362,-0.000274,-0.165307,-0.000488,0.000000,1.725586,-0.001485,0.003609,2.104770,6567,1,27,5
5.412580,-0.009300,-0.005559,-0.687018,0.000419,-0.000232,-0.164709,-0.000732,0.000000,1.746582,-0.001490,0.003387,2.102641,6567,0,28,-11
5.422350,-0.009295,-0.005561,-0.688664,0.000477,-0.000192,-0.164129,-0.000732,0.000000,1.767578,-0.001510,0.003148,2.100384,6573,0,28,-26
5.432120,-0.009290,-0.005563,-0.690304,0.000537,-0.000156,-0.163574,-0.000732,0.000000,1.788574,-0.001542,0.002851,2.098060,6573,0,28,-37
5.441890,-0.009284,-0.005564,-0.691938,0.000597,-0.000123,-0.163043,-0.000732,0.000000,1.809570,-0.001579,0.002540,2.095829,6570,0,28,-45
5.451660,-0.009278,-0.005565,-0.693567,0.000660,-0.000092,-0.162529,-0.000732,0.000000,1.830566,-0.001615,0.002190,2.093796,6570,1,27,-50
5.461430,-0.009271,-0.005566,-0.695192,0.000723,-0.000063,-0.162037,-0.000732,0.000000,1.851562,-0.001565,0.001757,2.092041,6576,1,27,-51
5.471200,-0.009263,-0.005566,-0.696811,0.000788,-0.000035,-0.161563,-0.000732,0.000000,1.872314,-0.001379,0.001248,2.090630,6580,1,27,-50
5.480970,-0.009255,-0.005566,-0.698426,0.000854,-0.000009,-0.161108,-0.000732,0.000000,1.893311,-0.001130,0.000728,2.089578,6572,1,28,-46
5.490740,-0.009246,-0.005566,-0.700036,0.000920,0.000017,-0.160663,-0.000732,0.000000,1.914307,-0.000844,0.000273,2.088913,6578,1,28,-40
5.500510,-0.009237,-0.005566,-0.701642,0.000987,0.000042,-0.160240,-0.000732,0.000000,1.935059,-0.000524,-0.000131,2.088633,6577,1,29,-33
5.510280,-0.009226,-0.005566,-0.703244,0.001053,0.000067,-0.159830,-0.000732,0.000000,1.956055,-0.000244,-0.000450,2.088700,6583,0,29,-24
5.520050,-0.009216,-0.005565,-0.704841,0.001118,0.000093,-0.159438,-0.000732,0.000000,1.976807,-0.000062,-0.000671,2.089070,6575,0,29,-16
5.529820,-0.009204,-0.005564,-0.706435,0.001183,0.000119,-0.159056,-0.000732,0.000000,1.997803,0.000058,-0.000828,2.089670,6583,0,29,-8
5.539590,-0.009192,-0.005562,-0.708025,0.001246,0.000145,-0.158690,-0.000732,0.000000,2.018555,0.000140,-0.000941,2.090442,6586,0,30,0
5.549360,-0.009179,-0.005561,-0.709612,0.001308,0.000172,-0.158348,-0.000732,0.000000,2.039551,0.000199,-0.000994,2.091288,6579,0,30,6
5.559130,-0.009166,-0.005559,-0.711195,0.001369,0.000199,-0.158019,-0.000732,0.000000,2.060547,0.000244,-0.000977,2.092192,6583,0,30,11
5.568900,-0.009152,-0.005557,-0.712775,0.001428,0.000227,-0.157713,-0.000732,0.000000,2.081299,0.000278,-0.000927,2.093103,6591,0,30,16
5.578670,-0.009137,-0.005554,-0.714352,0.001486,0.000255,-0.157427,-0.000732,0.000000,2.102295,0.000306,-0.000852,2.093992,6582,0,30,19
5.588440,-0.009122,-0.005552,-0.715927,0.001542,0.000283,-0.157146,-0.000732,0.000000,2.123291,0.000329,-0.000761,2.094802,6587,0,30,21
5.598210,-0.009106,-0.005549,-0.717498,0.001597,0.000311,-0.156882,-0.000732,0.000000,2.144287,0.000347,-0.000669,2.095507,6585,0,30,21
5.607980,-0.009090,-0.005545,-0.719067,0.001651,0.000339,-0.156632,-0.000732,0.000244,2.165039,0.000362,-0.000605,2.096066,6584,0,30,20
5.617750,-0.009073,-0.005542,-0.720634,0.001703,0.000367,-0.156386,-0.000732,0.000244,2.186035,0.000373,-0.000527,2.096450,6591,0,30,18
5.627520,-0.009056,-0.005538,-0.722198,0.001754,0.000395,-0.156159,-0.000732,0.000244,2.207031,0.000382,-0.000447,2.096680,6590,0,29,16
5.637290,-0.009038,-0.005534,-0.723760,0.001804,0.000423,-0.155949,-0.000732,0.000244,2.228027,0.000389,-0.000416,2.096757,6590,1,29,13
5.647060,-0.009019,-0.005529,-0.725320,0.001852,0.000450,-0.155744,-0.000732,0.000244,2.249023,0.000461,-0.000448,2.096712,6589,1,28,9
5.656830,-0.009001,-0.005525,-0.726878,0.001899,0.000477,-0.155558,-0.000732,0.000244,2.270020,0.000644,-0.000548,2.096541,6593,1,28,6
5.666600,-0.008981,-0.005520,-0.728434,0.001945,0.000503,-0.155397,-0.000732,0.000244,2.291016,0.000879,-0.000724,2.096274,6594,1,29,2
5.676370,-0.008962,-0.005515,-0.729989,0.001989,0.000529,-0.155234,-0.000488,0.000244,2.312012,0.001132,-0.000895,2.095946,6593,0,29,0
5.686140,-0.008942,-0.005509,-0.731542,0.002031,0.000555,-0.155083,-0.000488,0.000244,2.332764,0.001310,-0.001002,2.095626,6593,0,29,-2
5.695910,-0.008921,-0.005504,-0.733093,0.002071,0.000580,-0.154943,-0.000488,0.000244,2.353760,0.001424,-0.001081,2.095279,6586,0,30,-5
5.705680,-0.008900,-0.005498,-0.734643,0.002108,0.000604,-0.154791,-0.000488,0.000244,2.374756,0.001499,-0.001094,2.094913,6591,0,30,-6
5.715450,-0.008879,-0.005491,-0.736192,0.002143,0.000628,-0.154639,-0.000488,0.000244,2.395752,0.001540,-0.001066,2.094560,6590,-1,28,-8
5.725220,-0.008857,-0.005485,-0.737739,0.002176,0.000651,-0.154494,-0.000488,0.000244,2.416504,0.001442,-0.001132,2.094230,6596,-2,28,-8
5.734990,-0.008835,-0.005478,-0.739285,0.002207,0.000673,-0.154373,-0.000488,0.000244,2.437500,0.001193,-0.001258,2.093944,6587,1,31,-9
5.744760,-0.008813,-0.005472,-0.740829,0.002235,0.000694,-0.154235,-0.000488,0.000244,2.458496,0.001158,-0.001237,2.093710,6594,1,31,-8
5.754530,-0.008790,-0.005465,-0.742373,0.002262,0.000715,-0.154113,-0.000488,0.000244,2.479492,0.001246,-0.001092,2.093554,6592,1,31,-8
5.764300,-0.008768,-0.005457,-0.743915,0.002287,0.000736,-0.154003,-0.000488,0.000244,2.500488,0.001412,-0.000870,2.093453,6598,0,31,-6
5.774070,-0.008745,-0.005450,-0.745456,0.002309,0.000755,-0.153914,-0.000488,0.000244,2.521240,0.001575,-0.000627,2.093426,6591,0,31,-5
5.783840,-0.008721,-0.005442,-0.746996,0.002330,0.000774,-0.153819,-0.000488,0.000244,2.542236,0.001677,-0.000368,2.093452,6596,0,31,-4
5.793610,-0.008698,-0.005434,-0.748535,0.002349,0.000790,-0.153738,-0.000244,0.000244,2.563232,0.001738,-0.000116,2.093491,6596,0,30,-19
5.803380,-0.008674,-0.005426,-0.750074,0.002367,0.000804,-0.153669,-0.000244,0.000244,2.584229,0.001743,0.000108,2.089311,6599,0,30,-228
5.813150,-0.008651,-0.005418,-0.751612,0.002381,0.000813,-0.153623,-0.000244,0.000244,2.604980,0.001609,0.000288,2.068895,6593,0,30,-663
5.822920,-0.008627,-0.005410,-0.753149,0.002392,0.000814,-0.153561,-0.000244,0.000244,2.625488,0.001282,0.000363,2.023637,6600,0,17,-1293
5.832690,-0.008603,-0.005402,-0.754686,0.002399,0.000807,-0.153512,-0.000244,0.000244,2.645264,0.000722,-0.000522,1.948820,6595,-1,0,-2083
5.842460,-0.008579,-0.005394,-0.756222,0.002402,0.000791,-0.153463,-0.000244,0.000244,2.664062,-0.000247,-0.003444,1.842526,6602,-4,-15,-2993
5.852230,-0.008555,-0.005386,-0.757758,0.002400,0.000769,-0.153433,-0.000244,0.000244,2.681885,-0.001717,-0.008890,1.705047,6596,-6,-26,-3977
5.862000,-0.008531,-0.005379,-0.759294,0.002390,0.000746,-0.153403,-0.000244,0.000000,2.697998,-0.003759,-0.017069,1.541558,6594,-7,-37,-4500
5.871770,-0.008507,-0.005371,-0.760829,0.002369,0.000738,-0.153361,-0.000244,0.000000,2.712646,-0.005998,-0.027846,1.399512,6600,-9,-42,-4500
5.881540,-0.008483,-0.005364,-0.762364,0.002331,0.000753,-0.153336,-0.000488,-0.000244,2.726074,-0.008367,-0.040759,1.284279,6597,-9,-47,-4500
5.891310,-0.008460,-0.005356,-0.763899,0.002261,0.000795,-0.153313,-0.000488,-0.000732,2.738281,-0.010905,-0.055332,1.185741,6604,-9,-44,-4500
5.901080,-0.008438,-0.005348,-0.765434,0.002148,0.000870,-0.153317,-0.000732,-0.001465,2.749756,-0.013634,-0.070966,1.097617,6598,-10,-43,-4500
5.910850,-0.008418,-0.005338,-0.766969,0.001978,0.000985,-0.153317,-0.000732,-0.002197,2.760254,-0.016493,-0.087079,1.015701,6601,-11,-36,-4500
5.920620,-0.008399,-0.005328,-0.768503,0.001736,0.001147,-0.153305,-0.000977,-0.003174,2.770020,-0.019600,-0.102949,0.937873,6601,-13,-28,-4500
5.930390,-0.008383,-0.005315,-0.770038,0.001409,0.001363,-0.153306,-0.001221,-0.004150,2.779053,-0.022941,-0.117925,0.862450,6598,-11,-16,-4500
5.940160,-0.008372,-0.005300,-0.771572,0.000985,0.001639,-0.153307,-0.001709,-0.005371,2.787109,-0.026389,-0.131448,0.788518,6605,-11,-2,-4500
5.949930,-0.008365,-0.005282,-0.773107,0.000453,0.001983,-0.153329,-0.001953,-0.006836,2.794678,-0.029840,-0.142933,0.715578,6605,-13,10,-4500
5.959700,-0.008363,-0.005260,-0.774642,-0.000197,0.002400,-0.153364,-0.002441,-0.008301,2.801270,-0.033391,-0.152049,0.643037,6596,-10,19,-4500
5.969470,-0.008370,-0.005233,-0.776177,-0.000971,0.002894,-0.153377,-0.002686,-0.009766,2.807373,-0.036930,-0.158840,0.570901,6602,-8,30,-4500
5.979240,-0.008384,-0.005201,-0.777713,-0.001873,0.003469,-0.153395,-0.003174,-0.011475,2.812744,-0.040141,-0.163303,0.498990,6601,-8,44,-4500
5.989010,-0.008409,-0.005162,-0.779248,-0.002907,0.004128,-0.153410,-0.003662,-0.013184,2.817383,-0.043090,-0.165271,0.427172,6608,-4,53,-4500
5.998780,-0.008444,-0.005117,-0.780784,-0.004073,0.004874,-0.153436,-0.004150,-0.014648,2.821289,-0.045555,-0.164647,0.355581,6607,0,65,-4500
6.008550,-0.008492,-0.005064,-0.782320,-0.005368,0.005708,-0.153485,-0.004639,-0.016357,2.824463,-0.047376,-0.161601,0.283955,6603,0,66,-4500
6.018320,-0.008553,-0.005002,-0.783857,-0.006788,0.006628,-0.153528,-0.005127,-0.017822,2.826904,-0.048580,-0.156784,0.212283,6605,2,71,-4500
6.028090,-0.008630,-0.004930,-0.785394,-0.008328,0.007633,-0.153561,-0.005615,-0.019531,2.828613,-0.049406,-0.150475,0.140696,6602,4,74,-4500
6.037860,-0.008722,-0.004848,-0.786931,-0.009979,0.008721,-0.153593,-0.006104,-0.020996,2.829590,-0.049809,-0.142871,0.069067,6602,8,71,-4500
6.047630,-0.008831,-0.004754,-0.788469,-0.011735,0.009889,-0.153611,-0.006592,-0.022217,2.829834,-0.049544,-0.134470,-0.002560,6608,9,72,-4500
6.057400,-0.008959,-0.004648,-0.790007,-0.013586,0.011133,-0.153633,-0.007080,-0.023682,2.829590,-0.048507,-0.125724,-0.074049,6606,9,70,-4500
6.067170,-0.009106,-0.004529,-0.791545,-0.015524,0.012451,-0.153670,-0.007568,-0.024902,2.828369,-0.047013,-0.116812,-0.145583,6606,10,66,-4500
6.076940,-0.009272,-0.004397,-0.793083,-0.017539,0.013836,-0.153711,-0.008057,-0.025879,2.826660,-0.045190,-0.108246,-0.217154,6603,17,53,-4500
6.086710,-0.009459,-0.004251,-0.794622,-0.019625,0.015284,-0.153754,-0.008545,-0.026855,2.823975,-0.042455,-0.100859,-0.288635,6604,23,45,-4500
6.096480,-0.009667,-0.004090,-0.796161,-0.021774,0.016790,-0.153807,-0.008789,-0.028076,2.820557,-0.038487,-0.094937,-0.360234,6604,25,36,-4500
6.106250,-0.009897,-0.003913,-0.797701,-0.023979,0.018348,-0.153843,-0.009033,-0.029053,2.816650,-0.033246,-0.090859,-0.431832,6602,27,23,-4500
6.116020,-0.010150,-0.003721,-0.799241,-0.026240,0.019951,-0.153864,-0.009033,-0.029785,2.812012,-0.027023,-0.088810,-0.503387,6610,32,19,-4500
6.125790,-0.010425,-0.003512,-0.800782,-0.028555,0.021594,-0.153903,-0.009033,-0.030762,2.806641,-0.019699,-0.088379,-0.574835,6607,35,12,-4500
6.135560,-0.010724,-0.003286,-0.802322,-0.030925,0.023269,-0.153955,-0.009033,-0.031738,2.800537,-0.011410,-0.089537,-0.646372,6607,33,11,-4500
6.145330,-0.011047,-0.003044,-0.803864,-0.033354,0.024969,-0.154002,-0.009033,-0.032715,2.793457,-0.002689,-0.091926,-0.717930,6606,30,5,-4500
6.155100,-0.011394,-0.002785,-0.805406,-0.035846,0.026686,-0.154054,-0.008789,-0.033691,2.785889,0.005869,-0.095457,-0.789392,6610,29,9,-4500
6.164870,-0.011767,-0.002508,-0.806948,-0.038407,0.028417,-0.154122,-0.008301,-0.034912,2.777832,0.014129,-0.099616,-0.860887,6610,26,17,-4500
6.174640,-0.012166,-0.002214,-0.808491,-0.041041,0.030153,-0.154196,-0.007812,-0.035889,2.768799,0.021914,-0.103770,-0.932417,6605,19,18,-4500
6.184410,-0.012592,-0.001903,-0.810035,-0.043755,0.031891,-0.154253,-0.007080,-0.037109,2.759033,0.028764,-0.107517,-1.004096,6602,15,23,-4500
6.194180,-0.013045,-0.001574,-0.811579,-0.046553,0.033625,-0.154281,-0.006592,-0.038086,2.748535,0.034368,-0.110638,-1.075641,6609,12,32,-4223
6.203950,-0.013527,-0.001228,-0.813124,-0.049435,0.035367,-0.154317,-0.005615,-0.039307,2.737549,0.039260,-0.112808,-1.095253,6606,13,33,-2587
6.213720,-0.014038,-0.000864,-0.814669,-0.052399,0.037122,-0.154341,-0.004883,-0.040527,2.727051,0.043911,-0.113887,-1.027054,6605,5,41,-917
6.223490,-0.014579,-0.000483,-0.816214,-0.055448,0.038880,-0.154349,-0.003906,-0.041748,2.717529,0.047881,-0.113838,-0.895912,6604,1,43,733
6.233260,-0.015151,-0.000084,-0.817759,-0.058585,0.040635,-0.154345,-0.003174,-0.042969,2.709473,0.051057,-0.112705,-0.719259,6611,-2,53,2317
6.243030,-0.015756,0.000332,-0.819304,-0.061812,0.042383,-0.154360,-0.002441,-0.043945,2.703369,0.053407,-0.110392,-0.509701,6611,-6,58,3776
6.252800,-0.016392,0.000766,-0.820849,-0.065128,0.044117,-0.154391,-0.001709,-0.045166,2.699463,0.054775,-0.106858,-0.281076,6609,-13,62,4500
6.262570,-0.017063,0.001217,-0.822395,-0.068536,0.045822,-0.154422,-0.000977,-0.046143,2.697754,0.054482,-0.102162,-0.093213,6609,-15,60,4500
6.272340,-0.017768,0.001685,-0.823941,-0.072032,0.047496,-0.154444,-0.000488,-0.047119,2.697754,0.052763,-0.096643,0.050633,6617,-14,59,4500
6.282110,-0.018509,0.002170,-0.825487,-0.075608,0.049142,-0.154477,0.000000,-0.048096,2.698730,0.050028,-0.090620,0.166890,6614,-18,63,4500
6.291880,-0.019286,0.002670,-0.827033,-0.079256,0.050763,-0.154523,0.000244,-0.048828,2.700928,0.046514,-0.084256,0.266145,6606,-15,58,4500
6.301650,-0.020100,0.003187,-0.828580,-0.082965,0.052359,-0.154537,0.000488,-0.049805,2.704102,0.042683,-0.077830,0.354862,6603,-14,62,4500
6.311420,-0.020951,0.003720,-0.830127,-0.086728,0.053934,-0.154516,0.000732,-0.050537,2.708252,0.038745,-0.071183,0.437017,6603,-16,58,4500
6.321190,-0.021840,0.004269,-0.831674,-0.090535,0.055487,-0.154472,0.000732,-0.051025,2.712891,0.034844,-0.064806,0.515041,6612,-12,50,4500
6.330960,-0.022767,0.004833,-0.833220,-0.094381,0.057021,-0.154443,0.000732,-0.051758,2.718506,0.031251,-0.059063,0.590481,6609,-10,40,4500
6.340730,-0.023733,0.005412,-0.834766,-0.098259,0.058537,-0.154423,0.000732,-0.052246,2.724854,0.028008,-0.054451,0.664458,6609,-11,38,4500
6.350500,-0.024738,0.006006,-0.836311,-0.102163,0.060036,-0.154404,0.000732,-0.052979,2.731934,0.024878,-0.051036,0.737501,6605,-16,28,4500
6.360270,-0.025783,0.006615,-0.837857,-0.106086,0.061517,-0.154373,0.000488,-0.053467,2.739746,0.021411,-0.049096,0.807465,6605,-14,22,4038
6.370040,-0.026866,0.007239,-0.839402,-0.110031,0.062972,-0.154326,0.000244,-0.053955,2.748047,0.017473,-0.048634,0.828327,6612,-11,13,2943
6.379810,-0.027989,0.007877,-0.840946,-0.113997,0.064404,-0.154293,0.000000,-0.054443,2.756104,0.013169,-0.049552,0.793931,6611,-11,19,1796
6.389580,-0.029152,0.008530,-0.842491,-0.117982,0.065819,-0.154277,-0.000244,-0.054932,2.763672,0.008610,-0.051415,0.717729,6611,-9,13,636
6.399350,-0.030355,0.009196,-0.844035,-0.121983,0.067224,-0.154272,-0.000488,-0.055420,2.770264,0.004185,-0.054083,0.609545,6608,-6,10,-501
6.409120,-0.031599,0.009877,-0.845579,-0.126001,0.068626,-0.154265,-0.000732,-0.055908,2.775635,0.000160,-0.057424,0.477190,6609,-7,15,-1575
6.418890,-0.032882,0.010572,-0.847123,-0.130035,0.070031,-0.154248,-0.000977,-0.056641,2.779785,-0.003565,-0.061000,0.327704,6608,-4,18,-2540
6.428660,-0.034206,0.011280,-0.848667,-0.134088,0.071444,-0.154221,-0.001221,-0.057129,2.781982,-0.006797,-0.064504,0.168315,6614,-2,19,-3354
6.438430,-0.035571,0.012003,-0.850211,-0.138161,0.072873,-0.154201,-0.001221,-0.057861,2.782959,-0.009449,-0.067805,0.006694,6614,1,25,-3978
6.448200,-0.036976,0.012741,-0.851754,-0.142257,0.074323,-0.154202,-0.001465,-0.058594,2.782227,-0.011535,-0.070512,-0.149134,6611,5,28,-4384
